[
  {
    "city": "Rome",
    "city_cn": "羅馬",
    "lat": "41.8933", 
    "lng": "12.4828", 
    "country": "Italy",
    "country_cn": "義大利", 
    "iso2": "IT", 
    "admin_name": "Lazio", 
    "capital": "primary", 
    "population": "2748109", 
    "population_proper": "2748109"
  }, 
  {
    "city": "Venice",
    "city_cn": "威尼斯", 
    "lat": "45.4375", 
    "lng": "12.3358", 
    "country": "Italy",
    "country_cn": "義大利", 
    "iso2": "IT", 
    "admin_name": "Veneto", 
    "capital": "admin", 
    "population": "250369", 
    "population_proper": "250369"
  },
  {
    "city": "Florence",
    "city_cn": "佛羅倫斯",
    "lat": "43.7714", 
    "lng": "11.2542", 
    "country": "Italy",
    "country_cn": "義大利", 
    "iso2": "IT", 
    "admin_name": "Tuscany", 
    "capital": "admin", 
    "population": "360930", 
    "population_proper": "360930"
  },
  {
    "city": "Milan",
    "city_cn": "米蘭",
    "lat": "45.4669", 
    "lng": "9.1900", 
    "country": "Italy",
    "country_cn": "義大利", 
    "iso2": "IT", 
    "admin_name": "Lombardy", 
    "capital": "admin", 
    "population": "1354196", 
    "population_proper": "1354196"
  },
  {
    "city": "Naples",
    "city_cn": "那不勒斯", 
    "lat": "40.8333", 
    "lng": "14.2500", 
    "country": "Italy",
    "country_cn": "義大利", 
    "iso2": "IT", 
    "admin_name": "Campania", 
    "capital": "admin", 
    "population": "913462", 
    "population_proper": "913462"
  },
  {
    "city": "Marina di Pisa",
    "city_cn": "比薩",
    "lat": "43.6722", 
    "lng": "10.2769", 
    "country": "Italy",
    "country_cn": "義大利", 
    "iso2": "IT", 
    "admin_name": "Tuscany", 
    "capital": "", 
    "population": "3570", 
    "population_proper": "3570"
  },
  {
    "city": "Bologna",
    "city_cn": "博洛尼亞", 
    "lat": "44.4939", 
    "lng": "11.3428", 
    "country": "Italy",
    "country_cn": "義大利", 
    "iso2": "IT", 
    "admin_name": "Emilia-Romagna", 
    "capital": "admin", 
    "population": "387971", 
    "population_proper": "387971"
  },
  {
    "city": "Palermo",
    "city_cn": "巴勒莫", 
    "lat": "38.1111", 
    "lng": "13.3517", 
    "country": "Italy",
    "country_cn": "義大利", 
    "iso2": "IT", 
    "admin_name": "Sicilia", 
    "capital": "admin", 
    "population": "630167", 
    "population_proper": "630167"
  },
  {
    "city": "Turin",
    "city_cn": "都靈",
    "lat": "45.0792", 
    "lng": "7.6761", 
    "country": "Italy",
    "country_cn": "義大利", 
    "iso2": "IT", 
    "admin_name": "Piedmont", 
    "capital": "admin", 
    "population": "841600", 
    "population_proper": "841600"
  },
  {
    "city": "Genoa",
    "city_cn": "熱那亞",
    "lat": "44.4111", 
    "lng": "8.9328", 
    "country": "Italy",
    "country_cn": "義大利", 
    "iso2": "IT", 
    "admin_name": "Liguria", 
    "capital": "admin", 
    "population": "558745", 
    "population_proper": "558745"
  },
  {
    "city": "Bari", 
    "city_cn": "巴奇",
    "lat": "41.1253", 
    "lng": "16.8667", 
    "country": "Italy",
    "country_cn": "義大利", 
    "iso2": "IT", 
    "admin_name": "Puglia", 
    "capital": "admin", 
    "population": "316015", 
    "population_proper": "316015"
  },
  {
    "city": "Verona",
    "city_cn": "維羅納",
    "lat": "45.4386", 
    "lng": "10.9928", 
    "country": "Italy",
    "country_cn": "義大利", 
    "iso2": "IT", 
    "admin_name": "Veneto", 
    "capital": "minor", 
    "population": "255588", 
    "population_proper": "255588"
  },
  {
    "city": "Paris",
    "lat": "48.8567",
    "lng": "2.3522",
    "country": "France",
    "country_cn": "法國",
    "iso2": "FR",
    "admin_name": "Île-de-France",
    "capital": "primary",
    "population": "11060000",
    "population_proper": "2148271",
    "city_cn": "巴黎"
  },
  {
    "city": "Nice",
    "lat": "43.7034",
    "lng": "7.2663",
    "country": "France",
    "country_cn": "法國",
    "iso2": "FR",
    "admin_name": "Provence-Alpes-Côte d’Azur",
    "capital": "minor",
    "population": "348085",
    "population_proper": "348085",
    "city_cn": "尼斯"
  },
  {
    "city": "Marseille",
    "lat": "43.2964",
    "lng": "5.3700",
    "country": "France",
    "country_cn": "法國",
    "iso2": "FR",
    "admin_name": "Provence-Alpes-Côte d’Azur",
    "capital": "admin",
    "population": "873076",
    "population_proper": "873076",
    "city_cn": "馬賽"
  },
  {
    "city": "Lyon",
    "lat": "45.7600",
    "lng": "4.8400",
    "country": "France",
    "country_cn": "法國",
    "iso2": "FR",
    "admin_name": "Auvergne-Rhône-Alpes",
    "capital": "admin",
    "population": "522250",
    "population_proper": "522250",
    "city_cn": "里昂"
  },
  {
    "city": "Bordeaux",
    "lat": "44.8400",
    "lng": "-0.5800",
    "country": "France",
    "country_cn": "法國",
    "iso2": "FR",
    "admin_name": "Nouvelle-Aquitaine",
    "capital": "admin",
    "population": "994920",
    "population_proper": "994920",
    "city_cn": "波爾多"
  },
  {
    "city": "Montpellier",
    "lat": "43.6119",
    "lng": "3.8772",
    "country": "France",
    "country_cn": "法國",
    "iso2": "FR",
    "admin_name": "Occitanie",
    "capital": "minor",
    "population": "302454",
    "population_proper": "302454",
    "city_cn": "蒙彼利埃"
  },
  {
    "city": "Strasbourg",
    "lat": "48.5833",
    "lng": "7.7458",
    "country": "France",
    "country_cn": "法國",
    "iso2": "FR",
    "admin_name": "Grand Est",
    "capital": "admin",
    "population": "291313",
    "population_proper": "291313",
    "city_cn": "斯特拉斯堡"
  },
  {
    "city": "Toulouse",
    "lat": "43.6045",
    "lng": "1.4440",
    "country": "France",
    "country_cn": "法國",
    "iso2": "FR",
    "admin_name": "Occitanie",
    "capital": "admin",
    "population": "504078",
    "population_proper": "504078",
    "city_cn": "圖盧茲"
  },
  {
    "city": "Cannes",
    "lat": "43.5513",
    "lng": "7.0128",
    "country": "France",
    "country_cn": "法國",
    "iso2": "FR",
    "admin_name": "Provence-Alpes-Côte d’Azur",
    "capital": "",
    "population": "73255",
    "population_proper": "73255",
    "city_cn": "坎城"
  },
  {
    "city": "Reims",
    "lat": "49.2628",
    "lng": "4.0347",
    "country": "France",
    "country_cn": "法國",
    "iso2": "FR",
    "admin_name": "Grand Est",
    "capital": "minor",
    "population": "179380",
    "population_proper": "179380",
    "city_cn": "蘭斯"
  },
  {
    "city": "Angers",
    "lat": "47.4736",
    "lng": "-0.5542",
    "country": "France",
    "country_cn": "法國",
    "iso2": "FR",
    "admin_name": "Pays de la Loire",
    "capital": "minor",
    "population": "157175",
    "population_proper": "157175",
    "city_cn": "昂熱"
  },
  {
    "city": "Nantes",
    "lat": "47.2181",
    "lng": "-1.5528",
    "country": "France",
    "country_cn": "法國",
    "iso2": "FR",
    "admin_name": "Pays de la Loire",
    "capital": "admin",
    "population": "323204",
    "population_proper": "323204",
    "city_cn": "南特"
  },
  {
    "city": "Menton",
    "lat": "43.7750",
    "lng": "7.5000",
    "country": "France",
    "country_cn": "法國",
    "iso2": "FR",
    "admin_name": "Provence-Alpes-Côte d’Azur",
    "capital": "",
    "population": "30412",
    "population_proper": "30412",
    "city_cn": "瑪瑙"
  },
  {
    "city": "Lisbon",
    "lat": "38.7253",
    "lng": "-9.1500",
    "country": "Portugal",
    "country_cn": "葡萄牙",
    "iso2": "PT",
    "admin_name": "Lisboa",
    "capital": "primary",
    "population": "548703",
    "population_proper": "548703",
    "city_cn": "里斯本"
  },
  {
    "city": "Porto",
    "lat": "41.1621",
    "lng": "-8.6220",
    "country": "Portugal",
    "country_cn": "葡萄牙",
    "iso2": "PT",
    "admin_name": "Porto",
    "capital": "admin",
    "population": "1278210",
    "population_proper": "237591",
    "city_cn": "波爾圖"
  },
  {
    "city": "Sintra",
    "lat": "38.7992",
    "lng": "-9.3883",
    "country": "Portugal",
    "country_cn": "葡萄牙",
    "iso2": "PT",
    "admin_name": "Lisboa",
    "capital": "minor",
    "population": "377835",
    "population_proper": "377835",
    "city_cn": "辛特拉"
  },
  {
    "city": "Faro",
    "lat": "37.0161",
    "lng": "-7.9350",
    "country": "Portugal",
    "country_cn": "葡萄牙",
    "iso2": "PT",
    "admin_name": "Faro",
    "capital": "admin",
    "population": "64560",
    "population_proper": "64560",
    "city_cn": "法魯"
  },
  {
    "city": "Braga",
    "lat": "41.5503",
    "lng": "-8.4200",
    "country": "Portugal",
    "country_cn": "葡萄牙",
    "iso2": "PT",
    "admin_name": "Braga",
    "capital": "admin",
    "population": "181494",
    "population_proper": "181494",
    "city_cn": "布拉加"
  },
  {
    "city": "Coimbra",
    "lat": "40.2028",
    "lng": "-8.4139",
    "country": "Portugal",
    "country_cn": "葡萄牙",
    "iso2": "PT",
    "admin_name": "Coimbra",
    "capital": "admin",
    "population": "143396",
    "population_proper": "143396",
    "city_cn": "科英布拉"
  },
  {
    "city": "Évora",
    "lat": "38.5667",
    "lng": "-7.9000",
    "country": "Portugal",
    "country_cn": "葡萄牙",
    "iso2": "PT",
    "admin_name": "Évora",
    "capital": "admin",
    "population": "53591",
    "population_proper": "53591",
    "city_cn": "埃武拉"
  },
  {
    "city": "Amadora",
    "lat": "38.7333",
    "lng": "-9.2333",
    "country": "Portugal",
    "country_cn": "葡萄牙",
    "iso2": "PT",
    "admin_name": "Lisboa",
    "capital": "minor",
    "population": "175136",
    "population_proper": "175136",
    "city_cn": "阿馬多拉"
  },
  {
    "city": "Guimarães",
    "lat": "41.4500",
    "lng": "-8.3000",
    "country": "Portugal",
    "country_cn": "葡萄牙",
    "iso2": "PT",
    "admin_name": "Braga",
    "capital": "minor",
    "population": "158124",
    "population_proper": "158124",
    "city_cn": "吉馬良斯"
  },
  {
    "city": "Barreiro",
    "lat": "38.6667",
    "lng": "-9.0667",
    "country": "Portugal",
    "country_cn": "葡萄牙",
    "iso2": "PT",
    "admin_name": "Setúbal",
    "capital": "minor",
    "population": "78345",
    "population_proper": "78345",
    "city_cn": "巴雷魯"
  },
  {
    "city": "Barcelona",
    "lat": "41.3828",
    "lng": "2.1769",
    "country": "Spain",
    "country_cn": "西班牙",
    "iso2": "ES",
    "admin_name": "Catalonia",
    "capital": "admin",
    "population": "4800000",
    "population_proper": "1620343",
    "city_cn": "巴塞隆納"
  },
  {
    "city": "Madrid",
    "lat": "40.4169",
    "lng": "-3.7033",
    "country": "Spain",
    "country_cn": "西班牙",
    "iso2": "ES",
    "admin_name": "Madrid",
    "capital": "primary",
    "population": "6211000",
    "population_proper": "3266126",
    "city_cn": "馬德里"
  },
  {
    "city": "Valencia",
    "lat": "39.4700",
    "lng": "-0.3764",
    "country": "Spain",
    "country_cn": "西班牙",
    "iso2": "ES",
    "admin_name": "Valencia",
    "capital": "admin",
    "population": "1595000",
    "population_proper": "807693",
    "city_cn": "瓦倫西亞"
  },
  {
    "city": "Granada",
    "lat": "37.1781",
    "lng": "-3.6008",
    "country": "Spain",
    "country_cn": "西班牙",
    "iso2": "ES",
    "admin_name": "Andalusia",
    "capital": "minor",
    "population": "230595",
    "population_proper": "230595",
    "city_cn": "格拉納達"
  },
  {
    "city": "Toledo",
    "lat": "39.8567",
    "lng": "-4.0244",
    "country": "Spain",
    "country_cn": "西班牙",
    "iso2": "ES",
    "admin_name": "Castille-La Mancha",
    "capital": "admin",
    "population": "86070",
    "population_proper": "86070",
    "city_cn": "托萊多"
  },
  {
    "city": "Bilbao",
    "lat": "43.2569",
    "lng": "-2.9236",
    "country": "Spain",
    "country_cn": "西班牙",
    "iso2": "ES",
    "admin_name": "Basque Country",
    "capital": "minor",
    "population": "775000",
    "population_proper": "346096",
    "city_cn": "畢爾包"
  },
  {
    "city": "Zaragoza",
    "lat": "41.6500",
    "lng": "-0.8833",
    "country": "Spain",
    "country_cn": "西班牙",
    "iso2": "ES",
    "admin_name": "Aragon",
    "capital": "admin",
    "population": "682513",
    "population_proper": "682513",
    "city_cn": "薩拉戈薩"
  },
  {
    "city": "Cartagena",
    "lat": "37.6000",
    "lng": "-0.9833",
    "country": "Spain",
    "country_cn": "西班牙",
    "iso2": "ES",
    "admin_name": "Murcia",
    "capital": "",
    "population": "218050",
    "population_proper": "218050",
    "city_cn": "卡塔赫納"
  },
  {
    "city": "Girona",
    "lat": "41.9844",
    "lng": "2.8211",
    "country": "Spain",
    "country_cn": "西班牙",
    "iso2": "ES",
    "admin_name": "Catalonia",
    "capital": "minor",
    "population": "104320",
    "population_proper": "104320",
    "city_cn": "赫羅納"
  },
  {
    "city": "Salamanca",
    "lat": "40.9650",
    "lng": "-5.6642",
    "country": "Spain",
    "country_cn": "西班牙",
    "iso2": "ES",
    "admin_name": "Castille-Leon",
    "capital": "minor",
    "population": "143954",
    "population_proper": "143954",
    "city_cn": "薩拉曼卡"
  },
  {
    "city": "Jaén",
    "lat": "37.7667",
    "lng": "-3.7711",
    "country": "Spain",
    "country_cn": "西班牙",
    "iso2": "ES",
    "admin_name": "Andalusia",
    "capital": "minor",
    "population": "111888",
    "population_proper": "111888",
    "city_cn": "哈恩"
  },
  {
    "city": "Sevilla",
    "lat": "37.3900",
    "lng": "-5.9900",
    "country": "Spain",
    "country_cn": "西班牙",
    "iso2": "ES",
    "admin_name": "Andalusia",
    "capital": "admin",
    "population": "1100000",
    "population_proper": "684025",
    "city_cn": "塞維亞"
  }
]